{
  "type": "FeatureCollection",
  "features": [
    {
      "type": "Feature",
      "id": "NSW4305",
      "properties": {
        "name": "WHIAN WHIAN",
        "state": "NSW"
      },
      "geometry": {
        "type": "Point",
        "coordinates": [
          153.34967713,
          -28.60610226
        ]
      }
    },
    {
      "type": "Feature",
      "id": "NSW1286",
      "properties": {
        "name": "DOON DOON",
        "state": "NSW"
      },
      "geometry": {
        "type": "Point",
        "coordinates": [
          153.30563159,
          -28.49608843
        ]
      }
    },
    {
      "type": "Feature",
      "id": "NSW1421",
      "properties": {
        "name": "ELONG ELONG",
        "state": "NSW"
      },
      "geometry": {
        "type": "Point",
        "coordinates": [
          149.07455885,
          -32.1509472
        ]
      }
    },
    {
      "type": "Feature",
      "id": "NSW1731",
      "properties": {
        "name": "GOONOO GOONOO",
        "state": "NSW"
      },
      "geometry": {
        "type": "Point",
        "coordinates": [
          150.9126619,
          -31.29153535
        ]
      }
    },
    {
      "type": "Feature",
      "id": "NSW1816",
      "properties": {
        "name": "GUMLY GUMLY",
        "state": "NSW"
      },
      "geometry": {
        "type": "Point",
        "coordinates": [
          147.43178472,
          -35.13206191
        ]
      }
    },
    {
      "type": "Feature",
      "id": "NSW2234",
      "properties": {
        "name": "KUNDLE KUNDLE",
        "state": "NSW"
      },
      "geometry": {
        "type": "Point",
        "coordinates": [
          152.52984858,
          -31.85309559
        ]
      }
    },
    {
      "type": "Feature",
      "id": "NSW1825",
      "properties": {
        "name": "GUNDY GUNDY",
        "aka": "GUNDY",
        "state": "NSW"
      },
      "geometry": {
        "type": "Point",
        "coordinates": [
          150.98364439,
          -31.99622143
        ]
      }
    },
    {
      "type": "Feature",
      "id": "NSW1055",
      "properties": {
        "name": "COOMOO COOMOO",
        "state": "NSW"
      },
      "geometry": {
        "type": "Point",
        "coordinates": [
          150.10908534,
          -31.56918549
        ]
      }
    },
    {
      "type": "Feature",
      "id": "NSW2726",
      "properties": {
        "name": "MOONEY MOONEY",
        "state": "NSW"
      },
      "geometry": {
        "type": "Point",
        "coordinates": [
          151.212128,
          -33.529514
        ]
      }
    },
    {
      "type": "Feature",
      "id": "NSW1645",
      "properties": {
        "name": "GIN GIN",
        "state": "NSW"
      },
      "geometry": {
        "type": "Point",
        "coordinates": [
          148.09157689,
          -31.90046113
        ]
      }
    },
    {
      "type": "Feature",
      "id": "NSW4133",
      "properties": {
        "name": "WALLA WALLA",
        "state": "NSW"
      },
      "geometry": {
        "type": "Point",
        "coordinates": [
          146.87495352,
          -35.73603769
        ]
      }
    },
    {
      "type": "Feature",
      "id": "NSW4170",
      "properties": {
        "name": "WANGI WANGI",
        "state": "NSW"
      },
      "geometry": {
        "type": "Point",
        "coordinates": [
          151.58771689,
          -33.06988289
        ]
      }
    },
    {
      "type": "Feature",
      "id": "NSW2960",
      "properties": {
        "name": "NEVER NEVER",
        "state": "NSW"
      },
      "geometry": {
        "type": "Point",
        "coordinates": [
          152.81939995,
          -30.35582825
        ]
      }
    },
    {
      "type": "Feature",
      "id": "NSW457",
      "properties": {
        "name": "BOM BOM",
        "state": "NSW"
      },
      "geometry": {
        "type": "Point",
        "coordinates": [
          152.96954779,
          -29.76508037
        ]
      }
    },
    {
      "type": "Feature",
      "id": "NSW4119",
      "properties": {
        "name": "WAGGA WAGGA",
        "state": "NSW"
      },
      "geometry": {
        "type": "Point",
        "coordinates": [
          147.35983656,
          -35.10817205
        ]
      }
    },
    {
      "type": "Feature",
      "id": "NSW4379",
      "properties": {
        "name": "WOG WOG",
        "state": "NSW"
      },
      "geometry": {
        "type": "Point",
        "coordinates": [
          149.44139322,
          -37.07617818
        ]
      }
    },
    {
      "type": "Feature",
      "id": "NSW1789",
      "properties": {
        "name": "GREG GREG",
        "state": "NSW"
      },
      "geometry": {
        "type": "Point",
        "coordinates": [
          148.07083154,
          -36.06329259
        ]
      }
    },
    {
      "type": "Feature",
      "id": "NSW2028",
      "properties": {
        "name": "JELLAT JELLAT",
        "state": "NSW"
      },
      "geometry": {
        "type": "Point",
        "coordinates": [
          149.88123232,
          -36.72436298
        ]
      }
    },
    {
      "type": "Feature",
      "id": "NSW2129",
      "properties": {
        "name": "KERI KERI",
        "state": "NSW"
      },
      "geometry": {
        "type": "Point",
        "coordinates": [
          143.98365405,
          -34.77431799
        ]
      }
    },
    {
      "type": "Feature",
      "id": "NSW1318",
      "properties": {
        "name": "DUM DUM",
        "state": "NSW"
      },
      "geometry": {
        "type": "Point",
        "coordinates": [
          153.35540885,
          -28.38741668
        ]
      }
    },
    {
      "type": "Feature",
      "id": "NSW3983",
      "properties": {
        "name": "TUCKI TUCKI",
        "state": "NSW"
      },
      "geometry": {
        "type": "Point",
        "coordinates": [
          153.31697242,
          -28.92154122
        ]
      }
    },
    {
      "type": "Feature",
      "id": "NSW992",
      "properties": {
        "name": "COLLUM COLLUM",
        "state": "NSW"
      },
      "geometry": {
        "type": "Point",
        "coordinates": [
          152.47770939,
          -29.2539478
        ]
      }
    },
    {
      "type": "Feature",
      "id": "NSW232",
      "properties": {
        "name": "BAW BAW",
        "state": "NSW"
      },
      "geometry": {
        "type": "Point",
        "coordinates": [
          149.63850668,
          -34.71904344
        ]
      }
    },
    {
      "type": "Feature",
      "id": "NSW4378",
      "properties": {
        "name": "WOG WOG",
        "state": "NSW"
      },
      "geometry": {
        "type": "Point",
        "coordinates": [
          150.05385425,
          -35.2640402
        ]
      }
    },
    {
      "type": "Feature",
      "id": "NSW2243",
      "properties": {
        "name": "KURRI KURRI",
        "state": "NSW"
      },
      "geometry": {
        "type": "Point",
        "coordinates": [
          151.48020177,
          -32.81505637
        ]
      }
    },
    {
      "type": "Feature",
      "id": "NSW1179",
      "properties": {
        "name": "CURL CURL",
        "state": "NSW"
      },
      "geometry": {
        "type": "Point",
        "coordinates": [
          151.28967606,
          -33.76910952
        ]
      }
    },
    {
      "type": "Feature",
      "id": "NSW1628",
      "properties": {
        "name": "GHINNI GHINNI",
        "state": "NSW"
      },
      "geometry": {
        "type": "Point",
        "coordinates": [
          152.54850501,
          -31.88143686
        ]
      }
    },
    {
      "type": "Feature",
      "id": "NSW1712",
      "properties": {
        "name": "GOL GOL",
        "state": "NSW"
      },
      "geometry": {
        "type": "Point",
        "coordinates": [
          142.22500324,
          -34.16741863
        ]
      }
    },
    {
      "type": "Feature",
      "id": "NSW497",
      "properties": {
        "name": "BOONOO BOONOO",
        "state": "NSW"
      },
      "geometry": {
        "type": "Point",
        "coordinates": [
          152.10239418,
          -28.91553143
        ]
      }
    },
    {
      "type": "Feature",
      "id": "NSW510",
      "properties": {
        "name": "BOOTI BOOTI",
        "state": "NSW"
      },
      "geometry": {
        "type": "Point",
        "coordinates": [
          152.52231347,
          -32.31686241
        ]
      }
    },
    {
      "type": "Feature",
      "id": "NSW4132",
      "properties": {
        "name": "EURIE EURIE",
        "aka": "WALGETT",
        "state": "NSW"
      },
      "geometry": {
        "type": "Point",
        "coordinates": [
          148.05621224,
          -29.97973093
        ]
      }
    },
    {
      "type": "Feature",
      "id": "NSW4456",
      "properties": {
        "name": "WOY WOY",
        "state": "NSW"
      },
      "geometry": {
        "type": "Point",
        "coordinates": [
          151.29601339,
          -33.50115712
        ]
      }
    },
    {
      "type": "Feature",
      "id": "NSW2842",
      "properties": {
        "name": "MULI MULI",
        "state": "NSW"
      },
      "geometry": {
        "type": "Point",
        "coordinates": [
          152.58338468,
          -28.41823856
        ]
      }
    },
    {
      "type": "Feature",
      "id": "NSW3901",
      "properties": {
        "name": "TILBA TILBA",
        "state": "NSW"
      },
      "geometry": {
        "type": "Point",
        "coordinates": [
          150.03878302,
          -36.33545376
        ]
      }
    },
    {
      "type": "Feature",
      "id": "NSW578",
      "properties": {
        "name": "BRIL BRIL",
        "state": "NSW"
      },
      "geometry": {
        "type": "Point",
        "coordinates": [
          152.55768562,
          -31.27862459
        ]
      }
    },
    {
      "type": "Feature",
      "id": "NSW1352",
      "properties": {
        "name": "DURREN DURREN",
        "state": "NSW"
      },
      "geometry": {
        "type": "Point",
        "coordinates": [
          151.39507413,
          -33.181845
        ]
      }
    },
    {
      "type": "Feature",
      "id": "NSW1800",
      "properties": {
        "name": "GRONG GRONG",
        "state": "NSW"
      },
      "geometry": {
        "type": "Point",
        "coordinates": [
          146.78488679,
          -34.68823109
        ]
      }
    },
    {
      "type": "Feature",
      "id": "NSW4238",
      "properties": {
        "name": "WAY WAY",
        "state": "NSW"
      },
      "geometry": {
        "type": "Point",
        "coordinates": [
          152.9397594,
          -30.78063984
        ]
      }
    },
    {
      "type": "Feature",
      "id": "NSW650",
      "properties": {
        "name": "BUDGEE BUDGEE",
        "state": "NSW"
      },
      "geometry": {
        "type": "Point",
        "coordinates": [
          149.66445437,
          -32.51768173
        ]
      }
    },
    {
      "type": "Feature",
      "id": "NSW481",
      "properties": {
        "name": "BOOK BOOK",
        "state": "NSW"
      },
      "geometry": {
        "type": "Point",
        "coordinates": [
          147.54534578,
          -35.33352609
        ]
      }
    },
    {
      "type": "Feature",
      "id": "NSW5097",
      "properties": {
        "name": "BEGGAN BEGGAN",
        "state": "NSW"
      },
      "geometry": {
        "type": "Point",
        "coordinates": [
          148.29267085,
          -34.64538405
        ]
      }
    },
    {
      "type": "Feature",
      "id": "NSW3953",
      "properties": {
        "name": "TOPI TOPI",
        "state": "NSW"
      },
      "geometry": {
        "type": "Point",
        "coordinates": [
          152.33869304,
          -32.35848215
        ]
      }
    },
    {
      "type": "Feature",
      "id": "NSW4329",
      "properties": {
        "name": "WILLI WILLI",
        "state": "NSW"
      },
      "geometry": {
        "type": "Point",
        "coordinates": [
          152.3888107,
          -30.96637653
        ]
      }
    },
    {
      "type": "Feature",
      "id": "NSW167",
      "properties": {
        "name": "BANDA BANDA",
        "state": "NSW"
      },
      "geometry": {
        "type": "Point",
        "coordinates": [
          152.45288272,
          -31.19475682
        ]
      }
    },
    {
      "type": "Feature",
      "id": "NT281",
      "properties": {
        "name": "WAK WAK",
        "state": "NT"
      },
      "geometry": {
        "type": "Point",
        "coordinates": [
          131.23696779,
          -12.66325286
        ]
      }
    },
    {
      "type": "Feature",
      "id": "NT88",
      "properties": {
        "name": "BIRANY BIRANY",
        "aka": "EAST ARNHEM",
        "state": "NT"
      },
      "geometry": {
        "type": "Point",
        "coordinates": [
          135.89265094,
          -12.60636001
        ]
      }
    },
    {
      "type": "Feature",
      "id": "NT21",
      "properties": {
        "name": "BUBBLE BUBBLE",
        "aka": "BAINES",
        "state": "NT"
      },
      "geometry": {
        "type": "Point",
        "coordinates": [
          129.4843051,
          -15.90743318
        ]
      }
    },
    {
      "type": "Feature",
      "id": "NT250",
      "properties": {
        "name": "BANKA BANKA",
        "aka": "TABLELANDS",
        "state": "NT"
      },
      "geometry": {
        "type": "Point",
        "coordinates": [
          135.51278382,
          -18.92877084
        ]
      }
    },
    {
      "type": "Feature",
      "id": "QLD1525",
      "properties": {
        "name": "KAWL KAWL",
        "state": "QLD"
      },
      "geometry": {
        "type": "Point",
        "coordinates": [
          151.72379443,
          -26.18456755
        ]
      }
    },
    {
      "type": "Feature",
      "id": "QLD1893",
      "properties": {
        "name": "MIN MIN",
        "state": "QLD"
      },
      "geometry": {
        "type": "Point",
        "coordinates": [
          140.65844145,
          -22.8964125
        ]
      }
    },
    {
      "type": "Feature",
      "id": "QLD256",
      "properties": {
        "name": "BILLA BILLA",
        "state": "QLD"
      },
      "geometry": {
        "type": "Point",
        "coordinates": [
          150.29120901,
          -28.15238912
        ]
      }
    },
    {
      "type": "Feature",
      "id": "QLD292",
      "properties": {
        "name": "BLI BLI",
        "state": "QLD"
      },
      "geometry": {
        "type": "Point",
        "coordinates": [
          153.03339962,
          -26.61093306
        ]
      }
    },
    {
      "type": "Feature",
      "id": "QLD2270",
      "properties": {
        "name": "OBUM OBUM",
        "state": "QLD"
      },
      "geometry": {
        "type": "Point",
        "coordinates": [
          152.65547911,
          -27.9200542
        ]
      }
    },
    {
      "type": "Feature",
      "id": "QLD141",
      "properties": {
        "name": "BAN BAN",
        "state": "QLD"
      },
      "geometry": {
        "type": "Point",
        "coordinates": [
          151.81032024,
          -25.69405276
        ]
      }
    },
    {
      "type": "Feature",
      "id": "QLD746",
      "properties": {
        "name": "COWAN COWAN",
        "state": "QLD"
      },
      "geometry": {
        "type": "Point",
        "coordinates": [
          153.36616014,
          -27.12585533
        ]
      }
    },
    {
      "type": "Feature",
      "id": "QLD1143",
      "properties": {
        "name": "GIN GIN",
        "state": "QLD"
      },
      "geometry": {
        "type": "Point",
        "coordinates": [
          151.94666876,
          -24.97790335
        ]
      }
    },
    {
      "type": "Feature",
      "id": "QLD1925",
      "properties": {
        "name": "MONA MONA",
        "state": "QLD"
      },
      "geometry": {
        "type": "Point",
        "coordinates": [
          145.5429988,
          -16.74295131
        ]
      }
    },
    {
      "type": "Feature",
      "id": "QLD3256",
      "properties": {
        "name": "WUJAL WUJAL",
        "state": "QLD"
      },
      "geometry": {
        "type": "Point",
        "coordinates": [
          145.31316119,
          -15.96837531
        ]
      }
    },
    {
      "type": "Feature",
      "id": "QLD1861",
      "properties": {
        "name": "MIA MIA",
        "state": "QLD"
      },
      "geometry": {
        "type": "Point",
        "coordinates": [
          148.83062264,
          -21.22326143
        ]
      }
    },
    {
      "type": "Feature",
      "id": "QLD1564",
      "properties": {
        "name": "KIN KIN",
        "state": "QLD"
      },
      "geometry": {
        "type": "Point",
        "coordinates": [
          152.86832993,
          -26.25602564
        ]
      }
    },
    {
      "type": "Feature",
      "id": "QLD2269",
      "properties": {
        "name": "OBI OBI",
        "state": "QLD"
      },
      "geometry": {
        "type": "Point",
        "coordinates": [
          152.81620152,
          -26.64366755
        ]
      }
    },
    {
      "type": "Feature",
      "id": "QLD2380",
      "properties": {
        "name": "PINDI PINDI",
        "state": "QLD"
      },
      "geometry": {
        "type": "Point",
        "coordinates": [
          148.7233352,
          -20.85612917
        ]
      }
    },
    {
      "type": "Feature",
      "id": "QLD1880",
      "properties": {
        "name": "MILLAA MILLAA",
        "state": "QLD"
      },
      "geometry": {
        "type": "Point",
        "coordinates": [
          145.62212744,
          -17.49904035
        ]
      }
    },
    {
      "type": "Feature",
      "id": "SA210006071",
      "properties": {
        "name": "BON BON",
        "state": "SA"
      },
      "geometry": {
        "type": "Point",
        "coordinates": [
          135.50336966,
          -30.58972099
        ]
      }
    },
    {
      "type": "Feature",
      "id": "SA210006143",
      "properties": {
        "name": "MERTY MERTY",
        "state": "SA"
      },
      "geometry": {
        "type": "Point",
        "coordinates": [
          140.41150253,
          -28.55506518
        ]
      }
    },
    {
      "type": "Feature",
      "id": "SA210006223",
      "properties": {
        "name": "MUNDI MUNDI",
        "state": "SA"
      },
      "geometry": {
        "type": "Point",
        "coordinates": [
          140.95193959,
          -31.7428928
        ]
      }
    },
    {
      "type": "Feature",
      "id": "SA210006146",
      "properties": {
        "name": "PANDIE PANDIE",
        "state": "SA"
      },
      "geometry": {
        "type": "Point",
        "coordinates": [
          139.761603,
          -26.37118016
        ]
      }
    },
    {
      "type": "Feature",
      "id": "SA524",
      "properties": {
        "name": "GURRA GURRA",
        "state": "SA"
      },
      "geometry": {
        "type": "Point",
        "coordinates": [
          140.6402902,
          -34.30084058
        ]
      }
    },
    {
      "type": "Feature",
      "id": "SA662",
      "properties": {
        "name": "KI KI",
        "state": "SA"
      },
      "geometry": {
        "type": "Point",
        "coordinates": [
          139.79404481,
          -35.56662226
        ]
      }
    },
    {
      "type": "Feature",
      "id": "VIC605",
      "properties": {
        "name": "COLAC COLAC",
        "state": "VIC"
      },
      "geometry": {
        "type": "Point",
        "coordinates": [
          147.84814425,
          -36.2234801
        ]
      }
    },
    {
      "type": "Feature",
      "id": "VIC1971",
      "properties": {
        "name": "NOWA NOWA",
        "state": "VIC"
      },
      "geometry": {
        "type": "Point",
        "coordinates": [
          148.02012439,
          -37.69329684
        ]
      }
    },
    {
      "type": "Feature",
      "id": "VIC477",
      "properties": {
        "name": "CARAG CARAG",
        "state": "VIC"
      },
      "geometry": {
        "type": "Point",
        "coordinates": [
          144.89376841,
          -36.46005604
        ]
      }
    },
    {
      "type": "Feature",
      "id": "VIC1668",
      "properties": {
        "name": "MIA MIA",
        "state": "VIC"
      },
      "geometry": {
        "type": "Point",
        "coordinates": [
          144.60798716,
          -36.99005159
        ]
      }
    },
    {
      "type": "Feature",
      "id": "VIC226",
      "properties": {
        "name": "BET BET",
        "state": "VIC"
      },
      "geometry": {
        "type": "Point",
        "coordinates": [
          143.75270651,
          -36.92489242
        ]
      }
    },
    {
      "type": "Feature",
      "id": "VIC795",
      "properties": {
        "name": "DRUNG DRUNG",
        "aka": "DRUNG",
        "state": "VIC"
      },
      "geometry": {
        "type": "Point",
        "coordinates": [
          142.32832091,
          -36.765593
        ]
      }
    },
    {
      "type": "Feature",
      "id": "VIC2121",
      "properties": {
        "name": "PURA PURA",
        "state": "VIC"
      },
      "geometry": {
        "type": "Point",
        "coordinates": [
          143.06857978,
          -37.831926
        ]
      }
    },
    {
      "type": "Feature",
      "id": "VIC2493",
      "properties": {
        "name": "TERRICK TERRICK",
        "state": "VIC"
      },
      "geometry": {
        "type": "Point",
        "coordinates": [
          144.26337017,
          -36.1201418
        ]
      }
    },
    {
      "type": "Feature",
      "id": "VIC372",
      "properties": {
        "name": "BUDGEE BUDGEE",
        "state": "VIC"
      },
      "geometry": {
        "type": "Point",
        "coordinates": [
          147.09564339,
          -37.54593256
        ]
      }
    },
    {
      "type": "Feature",
      "id": "VIC1264",
      "properties": {
        "name": "JOEL JOEL",
        "state": "VIC"
      },
      "geometry": {
        "type": "Point",
        "coordinates": [
          142.99087145,
          -37.01480644
        ]
      }
    },
    {
      "type": "Feature",
      "id": "VIC2639",
      "properties": {
        "name": "VITE VITE",
        "state": "VIC"
      },
      "geometry": {
        "type": "Point",
        "coordinates": [
          143.14492394,
          -37.86012472
        ]
      }
    },
    {
      "type": "Feature",
      "id": "VIC2528",
      "properties": {
        "name": "TOL TOL",
        "state": "VIC"
      },
      "geometry": {
        "type": "Point",
        "coordinates": [
          142.82577671,
          -34.65135889
        ]
      }
    },
    {
      "type": "Feature",
      "id": "VIC1974",
      "properties": {
        "name": "NUG NUG",
        "state": "VIC"
      },
      "geometry": {
        "type": "Point",
        "coordinates": [
          146.72766897,
          -36.66463178
        ]
      }
    },
    {
      "type": "Feature",
      "id": "VIC343",
      "properties": {
        "name": "BRIT BRIT",
        "state": "VIC"
      },
      "geometry": {
        "type": "Point",
        "coordinates": [
          141.74168049,
          -37.41237464
        ]
      }
    },
    {
      "type": "Feature",
      "id": "VIC2833",
      "properties": {
        "name": "WOOD WOOD",
        "state": "VIC"
      },
      "geometry": {
        "type": "Point",
        "coordinates": [
          143.33286871,
          -35.10150767
        ]
      }
    },
    {
      "type": "Feature",
      "id": "VIC782",
      "properties": {
        "name": "DRIK DRIK",
        "state": "VIC"
      },
      "geometry": {
        "type": "Point",
        "coordinates": [
          141.26443068,
          -38.01108685
        ]
      }
    },
    {
      "type": "Feature",
      "id": "VIC1087",
      "properties": {
        "name": "GRE GRE",
        "state": "VIC"
      },
      "geometry": {
        "type": "Point",
        "coordinates": [
          143.0875402,
          -36.67426075
        ]
      }
    },
    {
      "type": "Feature",
      "id": "VIC390",
      "properties": {
        "name": "BULN BULN",
        "state": "VIC"
      },
      "geometry": {
        "type": "Point",
        "coordinates": [
          145.9531453,
          -38.09484041
        ]
      }
    },
    {
      "type": "Feature",
      "id": "VIC2491",
      "properties": {
        "name": "TERIP TERIP",
        "state": "VIC"
      },
      "geometry": {
        "type": "Point",
        "coordinates": [
          145.55715806,
          -37.00901037
        ]
      }
    },
    {
      "type": "Feature",
      "id": "VIC2849",
      "properties": {
        "name": "WOOL WOOL",
        "state": "VIC"
      },
      "geometry": {
        "type": "Point",
        "coordinates": [
          143.40904882,
          -38.22767424
        ]
      }
    },
    {
      "type": "Feature",
      "id": "VIC981",
      "properties": {
        "name": "GHIN GHIN",
        "state": "VIC"
      },
      "geometry": {
        "type": "Point",
        "coordinates": [
          145.35265174,
          -37.14252701
        ]
      }
    },
    {
      "type": "Feature",
      "id": "VIC1760",
      "properties": {
        "name": "MORRL MORRL",
        "state": "VIC"
      },
      "geometry": {
        "type": "Point",
        "coordinates": [
          142.89494631,
          -36.86638439
        ]
      }
    },
    {
      "type": "Feature",
      "id": "VIC2652",
      "properties": {
        "name": "WAL WAL",
        "state": "VIC"
      },
      "geometry": {
        "type": "Point",
        "coordinates": [
          142.62118367,
          -36.80988805
        ]
      }
    },
    {
      "type": "Feature",
      "id": "VIC1453",
      "properties": {
        "name": "LANG LANG",
        "state": "VIC"
      },
      "geometry": {
        "type": "Point",
        "coordinates": [
          145.58200289,
          -38.29541216
        ]
      }
    },
    {
      "type": "Feature",
      "id": "VIC97",
      "properties": {
        "name": "BAEL BAEL",
        "state": "VIC"
      },
      "geometry": {
        "type": "Point",
        "coordinates": [
          143.7382111,
          -35.68708587
        ]
      }
    },
    {
      "type": "Feature",
      "id": "VIC166",
      "properties": {
        "name": "BAW BAW",
        "state": "VIC"
      },
      "geometry": {
        "type": "Point",
        "coordinates": [
          146.30686348,
          -37.83205547
        ]
      }
    },
    {
      "type": "Feature",
      "id": "VIC1912",
      "properties": {
        "name": "NERRIN NERRIN",
        "state": "VIC"
      },
      "geometry": {
        "type": "Point",
        "coordinates": [
          143.01903903,
          -37.75889452
        ]
      }
    },
    {
      "type": "Feature",
      "id": "VIC2888",
      "properties": {
        "name": "YABBA YABBA",
        "aka": "YABBA NORTH",
        "state": "VIC"
      },
      "geometry": {
        "type": "Point",
        "coordinates": [
          145.68225053,
          -36.23101353
        ]
      }
    },
    {
      "type": "Feature",
      "id": "VIC1261",
      "properties": {
        "name": "JIL JIL",
        "state": "VIC"
      },
      "geometry": {
        "type": "Point",
        "coordinates": [
          142.97608693,
          -35.82187677
        ]
      }
    },
    {
      "type": "Feature",
      "id": "VIC984",
      "properties": {
        "name": "GIL GIL",
        "state": "VIC"
      },
      "geometry": {
        "type": "Point",
        "coordinates": [
          143.04092652,
          -36.32166551
        ]
      }
    },
    {
      "type": "Feature",
      "id": "VIC1052",
      "properties": {
        "name": "GONG GONG",
        "state": "VIC"
      },
      "geometry": {
        "type": "Point",
        "coordinates": [
          143.93731633,
          -37.54899942
        ]
      }
    },
    {
      "type": "Feature",
      "id": "VIC1705",
      "properties": {
        "name": "MITTA MITTA",
        "state": "VIC"
      },
      "geometry": {
        "type": "Point",
        "coordinates": [
          147.3985104,
          -36.6300278
        ]
      }
    },
    {
      "type": "Feature",
      "id": "VIC1444",
      "properties": {
        "name": "LAL LAL",
        "state": "VIC"
      },
      "geometry": {
        "type": "Point",
        "coordinates": [
          144.02952142,
          -37.67307007
        ]
      }
    },
    {
      "type": "Feature",
      "id": "VIC631",
      "properties": {
        "name": "COPE COPE",
        "state": "VIC"
      },
      "geometry": {
        "type": "Point",
        "coordinates": [
          143.07244945,
          -36.46591253
        ]
      }
    },
    {
      "type": "Feature",
      "id": "VIC2870",
      "properties": {
        "name": "WUK WUK",
        "state": "VIC"
      },
      "geometry": {
        "type": "Point",
        "coordinates": [
          147.42668959,
          -37.745079
        ]
      }
    },
    {
      "type": "Feature",
      "id": "WA1902",
      "properties": {
        "name": "BINDI BINDI",
        "state": "WA"
      },
      "geometry": {
        "type": "Point",
        "coordinates": [
          116.41559521,
          -30.61729898
        ]
      }
    },
    {
      "type": "Feature",
      "id": "WA1949",
      "properties": {
        "name": "NERREN NERREN",
        "state": "WA"
      },
      "geometry": {
        "type": "Point",
        "coordinates": [
          114.41051918,
          -27.0653168
        ]
      }
    },
    {
      "type": "Feature",
      "id": "WA2413",
      "properties": {
        "name": "BALLA BALLA",
        "state": "WA"
      },
      "geometry": {
        "type": "Point",
        "coordinates": [
          117.732429,
          -20.686194
        ]
      }
    },
    {
      "type": "Feature",
      "id": "WA1730",
      "properties": {
        "name": "MURRIN MURRIN",
        "aka": "LEONORA",
        "state": "WA"
      },
      "geometry": {
        "type": "Point",
        "coordinates": [
          121.45709765,
          -28.84346893
        ]
      }
    },
    {
      "type": "Feature",
      "id": "WA2653",
      "properties": {
        "name": "BALLY BALLY",
        "state": "WA"
      },
      "geometry": {
        "type": "Point",
        "coordinates": [
          117.14095709,
          -32.20781826
        ]
      }
    }
  ]
}
